[
 {
  "id": 12493,
  "address": "湖北省武汉市洪山区武汉大学信息学部学生宿舍3舍",
  "shortName": "shuidao",
  "name": "王三",
  "area":3.5,
  "target":"水稻",
  "generalLongitude": 0,
  "generalLatitude": 0,
  "longitude":114.35547166898954,
  "latitude": 30.530470308356893,
  "street": "求是路",
  "suburb": "Strubens Valley",
  "postalCode": "1724",
  "arEntityType": "EBUCKSPARTNER",
  "city": "宿迁",
  "province": "江苏",
  "phoneIcon": "ebucks.ar.retailer.dischem.pharmacies.png",
  "partnerId": 12492,
  "altitude": 0.0,
  "icon": "ebucks.ar.retailer.dischem.pharmacies.png",
  "storeLevelShort": "GL",
  "fridayTH": "08h30 - 18h00",
  "saturdayTH": "08h00 - 17h00",
  "sundayTH": "09h00 - 15h00",
  "alternativeTH": "09h00 - 15h00",
  "tel": "0119913600",
  "isStoreClosed": "Open",
  "operationTime": "08h30 to 18h00",
  "distance": 5.499071081756034,
  "scale": 1.0,
  "offsetX": -75.0,
  "offsetY": -150.0,
  "skin": "fnb",
  "color": "#009999",
  "opacity": 1.0,
  "cluster": false,
  "clusterName": "Retail Crossing Shopping Centre",
  "clusterType": "Strip Mall",
  "atmChildren": [],
  "branchChildren": [],
  "termId": 0,
  "acceptCashDeposit": false,
  "acceptCoinDeposit": false,
  "acceptEnvelopeDeposit": false,
  "hasCashDispenser": false,
  "hasChequeReader": false,
  "printStatement": false,
  "adt": false,
  "generatorAvailable": false,
  "tellersInBranch": false,
  "wifiAvailable": false,
  "eBanker": false,
  "smartIdCapable": false,
  "cardDeliverAvailable": false,
  "countryCode": 0,
  "branchRevamp": false
 }, {
 "id": 12494,
 "address": "湖北省武汉市洪山区武汉大学信息学部学生宿舍3舍",
 "shortName": "baicai",
 "name": "李文",
 "area":2,
 "target":"白菜",
 "generalLongitude": 0,
 "generalLatitude": 0,
 "longitude":114.35606596474419,
 "latitude": 30.530469423417717,
 "street": "求是路",
 "suburb": "Strubens Valley",
 "postalCode": "1724",
 "arEntityType": "EBUCKSPARTNER",
 "city": "宿迁",
 "province": "江苏",
 "phoneIcon": "ebucks.ar.retailer.dischem.pharmacies.png",
 "partnerId": 12492,
 "altitude": 0.0,
 "icon": "ebucks.ar.retailer.dischem.pharmacies.png",
 "storeLevelShort": "GL",
 "fridayTH": "08h30 - 18h00",
 "saturdayTH": "08h00 - 17h00",
 "sundayTH": "09h00 - 15h00",
 "alternativeTH": "09h00 - 15h00",
 "tel": "0119913600",
 "isStoreClosed": "Open",
 "operationTime": "08h30 to 18h00",
 "distance": 5.499071081756034,
 "scale": 1.0,
 "offsetX": -75.0,
 "offsetY": -150.0,
 "skin": "fnb",
 "color": "#009999",
 "opacity": 1.0,
 "cluster": false,
 "clusterName": "Retail Crossing Shopping Centre",
 "clusterType": "Strip Mall",
 "atmChildren": [],
 "branchChildren": [],
 "termId": 0,
 "acceptCashDeposit": false,
 "acceptCoinDeposit": false,
 "acceptEnvelopeDeposit": false,
 "hasCashDispenser": false,
 "hasChequeReader": false,
 "printStatement": false,
 "adt": false,
 "generatorAvailable": false,
 "tellersInBranch": false,
 "wifiAvailable": false,
 "eBanker": false,
 "smartIdCapable": false,
 "cardDeliverAvailable": false,
 "countryCode": 0,
 "branchRevamp": false
},
 {
  "id": 12495,
  "address": "湖北省武汉市武汉大学信息学部学生宿舍2舍",
  "shortName": "qingcai",
  "name": "章云",
  "area": 2.7,
  "target": "青菜",
  "generalLongitude": 0,
  "generalLatitude": 0,
  "longitude":114.35548173516497,
  "latitude": 30.5295745829444,
  "street": "求是路",
  "suburb": "Strubens Valley",
  "postalCode": "1724",
  "arEntityType": "EBUCKSPARTNER",
  "city": "宿迁",
  "province": "江苏",
  "phoneIcon": "ebucks.ar.retailer.dischem.pharmacies.png",
  "partnerId": 12492,
  "altitude": 0.0,
  "icon": "ebucks.ar.retailer.dischem.pharmacies.png",
  "storeLevelShort": "GL",
  "fridayTH": "08h30 - 18h00",
  "saturdayTH": "08h00 - 17h00",
  "sundayTH": "09h00 - 15h00",
  "alternativeTH": "09h00 - 15h00",
  "tel": "0119913600",
  "isStoreClosed": "Open",
  "operationTime": "08h30 to 18h00",
  "distance": 5.499071081756034,
  "scale": 1.0,
  "offsetX": -75.0,
  "offsetY": -150.0,
  "skin": "fnb",
  "color": "#009999",
  "opacity": 1.0,
  "cluster": false,
  "clusterName": "Retail Crossing Shopping Centre",
  "clusterType": "Strip Mall",
  "atmChildren": [],
  "branchChildren": [],
  "termId": 0,
  "acceptCashDeposit": false,
  "acceptCoinDeposit": false,
  "acceptEnvelopeDeposit": false,
  "hasCashDispenser": false,
  "hasChequeReader": false,
  "printStatement": false,
  "adt": false,
  "generatorAvailable": false,
  "tellersInBranch": false,
  "wifiAvailable": false,
  "eBanker": false,
  "smartIdCapable": false,
  "cardDeliverAvailable": false,
  "countryCode": 0,
  "branchRevamp": false
 },
 {
  "id": 12496,
  "address": "湖北省武汉市洪山区武汉大学信息学部学生宿舍3舍",
  "shortName": "xiaomai",
  "name": "胡可",
  "area": 3.4,
  "target": "小麦",
  "generalLongitude": 0,
  "generalLatitude": 0,
  "longitude": 114.356103997417,
  "latitude": 30.5295826538335,
  "street": "求是路",
  "suburb": "Strubens Valley",
  "postalCode": "1724",
  "arEntityType": "EBUCKSPARTNER",
  "city": "宿迁",
  "province": "江苏",
  "phoneIcon": "ebucks.ar.retailer.dischem.pharmacies.png",
  "partnerId": 12492,
  "altitude": 0.0,
  "icon": "ebucks.ar.retailer.dischem.pharmacies.png",
  "storeLevelShort": "GL",
  "fridayTH": "08h30 - 18h00",
  "saturdayTH": "08h00 - 17h00",
  "sundayTH": "09h00 - 15h00",
  "alternativeTH": "09h00 - 15h00",
  "tel": "0119913600",
  "isStoreClosed": "Open",
  "operationTime": "08h30 to 18h00",
  "distance": 5.499071081756034,
  "scale": 1.0,
  "offsetX": -75.0,
  "offsetY": -150.0,
  "skin": "fnb",
  "color": "#009999",
  "opacity": 1.0,
  "cluster": false,
  "clusterName": "Retail Crossing Shopping Centre",
  "clusterType": "Strip Mall",
  "atmChildren": [],
  "branchChildren": [],
  "termId": 0,
  "acceptCashDeposit": false,
  "acceptCoinDeposit": false,
  "acceptEnvelopeDeposit": false,
  "hasCashDispenser": false,
  "hasChequeReader": false,
  "printStatement": false,
  "adt": false,
  "generatorAvailable": false,
  "tellersInBranch": false,
  "wifiAvailable": false,
  "eBanker": false,
  "smartIdCapable": false,
  "cardDeliverAvailable": false,
  "countryCode": 0,
  "branchRevamp": false
 },
 {
  "id": 12497,
  "address": "湖北省武汉市洪山区武汉大学信息学部学生宿舍3舍",
  "shortName": "xihongshi",
  "name": "刘业",
  "area": 3.7,
  "target": "西红柿",
  "generalLongitude": 0,
  "generalLatitude": 0,
  "longitude": 114.3556604853646,
  "latitude": 30.529998178917115,
  "street": "求是路",
  "suburb": "Strubens Valley",
  "postalCode": "1724",
  "arEntityType": "EBUCKSPARTNER",
  "city": "宿迁",
  "province": "江苏",
  "phoneIcon": "ebucks.ar.retailer.dischem.pharmacies.png",
  "partnerId": 12492,
  "altitude": 0.0,
  "icon": "ebucks.ar.retailer.dischem.pharmacies.png",
  "storeLevelShort": "GL",
  "fridayTH": "08h30 - 18h00",
  "saturdayTH": "08h00 - 17h00",
  "sundayTH": "09h00 - 15h00",
  "alternativeTH": "09h00 - 15h00",
  "tel": "0119913600",
  "isStoreClosed": "Open",
  "operationTime": "08h30 to 18h00",
  "distance": 5.499071081756034,
  "scale": 1.0,
  "offsetX": -75.0,
  "offsetY": -150.0,
  "skin": "fnb",
  "color": "#009999",
  "opacity": 1.0,
  "cluster": false,
  "clusterName": "Retail Crossing Shopping Centre",
  "clusterType": "Strip Mall",
  "atmChildren": [],
  "branchChildren": [],
  "termId": 0,
  "acceptCashDeposit": false,
  "acceptCoinDeposit": false,
  "acceptEnvelopeDeposit": false,
  "hasCashDispenser": false,
  "hasChequeReader": false,
  "printStatement": false,
  "adt": false,
  "generatorAvailable": false,
  "tellersInBranch": false,
  "wifiAvailable": false,
  "eBanker": false,
  "smartIdCapable": false,
  "cardDeliverAvailable": false,
  "countryCode": 0,
  "branchRevamp": false
 }
]
